[
  {
    "shop_name": "QUALITY SHOP",
    "address": "91, Eden Gdn St, Shanthi Nagar, Wadia Nagar, Jamalia, Chennai, Tamil Nadu 600012",
    "area": "Jamaliya",
    "mobile_number": "095599 55239",
    "website": null,
    "rating": null,
    "products_list": "All household items",
    "shop_type": "Provision Store",
    "directions": "https://www.google.com/maps/dir//54+St,+Tamil+Nadu+600053/@13.1071053,80.1716768,12z/data=!4m8!4m7!1m0!1m5!1m1!1s0x3a5265ce01ed2c67:0xc3af32e327685d2d!2m2!1d80.2540588!2d13.1071244?entry=ttu",
    "latitude": 13.1071053,
    "longitude": 80.1716768
  },
  {
    "shop_name": "SARAVANAN SHOP",
    "address": "54 St, Tamil Nadu 600053",
    "area": "Jamaliya",
    "mobile_number": 9840713393.0,
    "website": null,
    "rating": null,
    "products_list": "Online services",
    "shop_type": "Small business",
    "directions": "https://maps.app.goo.gl/xqfuVGyD1EGEgASL6",
    "latitude": 13.1071236,
    "longitude": 80.2515038
  },
  {
    "shop_name": "BISMILLAH BIRIYANI CENTRE",
    "address": "METTUPALAYAM, 2/26A POLERI, AMMAN KOIL ST, Chennai, Tamil Nadu 600012",
    "area": "Pulianthope",
    "mobile_number": 9884199628.0,
    "website": null,
    "rating": null,
    "products_list": "Restaurent",
    "shop_type": "Restaurants",
    "directions": "https://www.google.com/maps/place/BISMILLAH+BIRIYANI+CENTRE/@13.1070888,80.2514881,17z/data=!4m6!3m5!1s0x3a5265ce4dd6bb69:0x4d1da19dd4ff682a!8m2!3d13.1078861!4d80.2543856!16s%2Fg%2F11l2f83rxl?entry=tts",
    "latitude": 13.1070888,
    "longitude": 80.2514881
  },
  {
    "shop_name": "Hotfut SPR Sports",
    "address": "SPR City, B&C Mills, Stephenson Rd, Buckingham Carnatic Mills, Perambur, Chennai, Tamil Nadu 600012",
    "area": "Jamaliya",
    "mobile_number": 8956105584.0,
    "website": null,
    "rating": null,
    "products_list": "sports complex",
    "shop_type": "Small business",
    "directions": "https://maps.app.goo.gl/Q3QARCh6gzj8hiVNA",
    "latitude": 13.1033604,
    "longitude": 80.2428669
  },
  {
    "shop_name": "SPR CITY Highliving Apartment",
    "address": "4722+JVG, Bhanumati Rd, Shanthi Nagar, Somasundara Nagar, Jamalia, Chennai, Tamil Nadu 600012",
    "area": "Jamaliya",
    "mobile_number": 4466786600.0,
    "website": null,
    "rating": null,
    "products_list": "Condominium complex",
    "shop_type": "Small business",
    "directions": "https://maps.app.goo.gl/bV62gbb4mcLocG2h7",
    "latitude": 13.1033604,
    "longitude": 80.2428669
  },
  {
    "shop_name": "RATNA MAKEUP LOUNGE & UNISEX SALON",
    "address": "NO:14/37, HYDERGARDEN MAIN ROAD, Cooks Rd, Jamalia, Chennai, Tamil Nadu 600012",
    "area": "Jamaliya",
    "mobile_number": 9884441818.0,
    "website": null,
    "rating": null,
    "products_list": "Beauty Parlour",
    "shop_type": "Small business",
    "directions": "https://maps.app.goo.gl/3Zfzz5DUHEdSGDnL6",
    "latitude": 13.10156,
    "longitude": 80.2521908
  },
  {
    "shop_name": "Hemaraj Bhavan",
    "address": "40, Cooks Rd, Otteri, Jamalia, Chennai, Tamil Nadu 600012",
    "area": "Jamaliya",
    "mobile_number": 9884465272.0,
    "website": null,
    "rating": null,
    "products_list": "Wedding venue",
    "shop_type": "Restaurants",
    "directions": "https://maps.app.goo.gl/DAdw3F3nKjmshVtf6",
    "latitude": 13.1012047,
    "longitude": 80.2498734
  },
  {
    "shop_name": "Wonderchef Home Appliances",
    "address": "4722+M5Q, Shanthi Nagar, Somasundara Nagar, Jamalia, Chennai, Tamil Nadu 600012",
    "area": "Jamaliya",
    "mobile_number": 18602660788.0,
    "website": null,
    "rating": null,
    "products_list": "Appliance store",
    "shop_type": "Hardawers and tools",
    "directions": "https://maps.app.goo.gl/kipCJJrPiqtiag6i8",
    "latitude": 13.1012047,
    "longitude": 80.2498734
  },
  {
    "shop_name": "MG AUTO GAS",
    "address": "84, Eden Gdn St, Shanthi Nagar, Wadia Nagar, Jamalia, Chennai, Tamil Nadu 600012",
    "area": "Jamaliya",
    "mobile_number": 9884880399.0,
    "website": null,
    "rating": null,
    "products_list": "CNG Fitment Center",
    "shop_type": "Small business",
    "directions": "https://maps.app.goo.gl/xFBDW925c866uej68",
    "latitude": 13.1038568,
    "longitude": 80.2487999
  },
  {
    "shop_name": "NARASIMHAN STORES",
    "address": "28 EDEN GARDEN STREET, Cooks Rd, Jamalia, Chennai, Tamil Nadu 600012",
    "area": "Jamaliya",
    "mobile_number": 7010872279.0,
    "website": null,
    "rating": null,
    "products_list": "Grocery store",
    "shop_type": "Provision Store",
    "directions": "https://maps.app.goo.gl/F6LzwDSSkExwiyFs6",
    "latitude": 13.1036498,
    "longitude": 80.2508089
  },
  {
    "shop_name": "DANA TIFFAN CENTER",
    "address": "No.33, 2nd St, Shanthi Nagar, Wadia Nagar, Perambur, Chennai, Tamil Nadu 600012",
    "area": "Jamaliya",
    "mobile_number": 8124841411.0,
    "website": null,
    "rating": null,
    "products_list": "Store",
    "shop_type": "Restaurants",
    "directions": "https://maps.app.goo.gl/83yq7LsvLgBYpPyf9",
    "latitude": 13.1036524,
    "longitude": 80.2506667
  },
  {
    "shop_name": "A R STORE",
    "address": "7/84, Hyder Garden Main Rd, Shanthi Nagar, Wadia Nagar, Perambur, Chennai, Tamil Nadu 600012",
    "area": "Jamaliya",
    "mobile_number": 9710252089.0,
    "website": null,
    "rating": null,
    "products_list": "Dairy store",
    "shop_type": "Provision Store",
    "directions": "https://maps.app.goo.gl/iTiKfV7gnnxMMUcbA",
    "latitude": 13.103672,
    "longitude": 80.2503395
  },
  {
    "shop_name": "MSR Provision Store",
    "address": "2nd St, Shanthi Nagar, Wadia Nagar, Jamalia, Chennai, Tamil Nadu 600012",
    "area": "Jamaliya",
    "mobile_number": 9514225440.0,
    "website": null,
    "rating": null,
    "products_list": "Grocery store",
    "shop_type": "Provision Store",
    "directions": "https://maps.app.goo.gl/oRsRjC4igYc2rDYq8",
    "latitude": 13.103672,
    "longitude": 80.2503395
  },
  {
    "shop_name": "Hotel Presidency",
    "address": "No: 108/23, Krishna Doss Rd, Shanthi Nagar, Mangalapuram, Jamalia, Chennai, Tamil Nadu 600012",
    "area": "Jamaliya",
    "mobile_number": 9840017161.0,
    "website": null,
    "rating": null,
    "products_list": "Restaurant",
    "shop_type": "Restaurants",
    "directions": "https://maps.app.goo.gl/mTT4wDAKvwYWbwZu7",
    "latitude": 13.1034098,
    "longitude": 80.2268063
  },
  {
    "shop_name": "Hunger square",
    "address": "27/27, Perambur High Rd, Shanthi Nagar, Shanthi Colony, Perambur, Chennai, Tamil Nadu 600012",
    "area": "Jamaliya",
    "mobile_number": 9840487276.0,
    "website": null,
    "rating": null,
    "products_list": "Italian restaurant",
    "shop_type": "Restaurants",
    "directions": "https://maps.app.goo.gl/ay63iPKD5NxDRapm6",
    "latitude": 13.1044054,
    "longitude": 80.2477592
  },
  {
    "shop_name": "Hyder Garden Matriculation School",
    "address": "No.1, 1st St Hyder Garden, Shanthi Nagar, Wadia Nagar, Extn, Chennai, Tamil Nadu 600012",
    "area": "Jamaliya",
    "mobile_number": 4426625741.0,
    "website": null,
    "rating": null,
    "products_list": "School",
    "shop_type": "Small business",
    "directions": "https://maps.app.goo.gl/AAfAAZgTWxTN5Ees5",
    "latitude": 13.1044054,
    "longitude": 80.2477592
  },
  {
    "shop_name": "Begum Shafia Nazir Husain Trust Hospital",
    "address": "25, Shanthi Nagar, Jamalia Nagar, Perambur, Chennai, Tamil Nadu 600012",
    "area": "Jamaliya",
    "mobile_number": 4426625529.0,
    "website": null,
    "rating": null,
    "products_list": "Hospital",
    "shop_type": "Provision Store",
    "directions": "https://maps.app.goo.gl/aepmMYARUgfvp2ns9",
    "latitude": 13.1045621,
    "longitude": 80.2470082
  },
  {
    "shop_name": "Integral Club Swimming Pool",
    "address": "463R+85R, Mathur Rd, Railway Colony, Seeyalam, Ayanavaram, Chennai, Tamil Nadu 600023",
    "area": "Aynavaram",
    "mobile_number": 9444045267.0,
    "website": null,
    "rating": null,
    "products_list": "Swimming pool",
    "shop_type": "Small business",
    "directions": "https://maps.app.goo.gl/YwfmY77F5PHrajYd6",
    "latitude": 13.1042604,
    "longitude": 80.2392954
  },
  {
    "shop_name": "DS GULFI SHOP Ice Cream",
    "address": "Appadurai 2nd St, Vasantha nagar, Chinna Chembarambakkam, Ayanavaram, Chennai, Tamil Nadu 600050",
    "area": "Aynavaram",
    "mobile_number": 9962606753.0,
    "website": null,
    "rating": null,
    "products_list": "Ice cream shop",
    "shop_type": "Small business",
    "directions": "https://maps.app.goo.gl/VAP9aPRRmv9AhUE37",
    "latitude": 13.1020764,
    "longitude": 80.2320641
  },
  {
    "shop_name": "Murthy Audio & Light Setting",
    "address": "No 215 K H Road Opposit Railway Quarters Ayanavaram, Chennai, Tamil Nadu 600023",
    "area": "Aynavaram",
    "mobile_number": 9841844059.0,
    "website": null,
    "rating": null,
    "products_list": "Audio visual equipment supplier",
    "shop_type": "Small business",
    "directions": "https://maps.app.goo.gl/yzJfcD3Y8uBvpJVg8",
    "latitude": 13.1011262,
    "longitude": 80.2248978
  },
  {
    "shop_name": "MAkkal MEDICAL SANGEETHA C",
    "address": "4743+HMR, Unnamed Road, Shanthi Nagar, Arundati Nagar, Jamalia, Chennai, Tamil Nadu 600012",
    "area": "Jamaliya",
    "mobile_number": 7200006051.0,
    "website": null,
    "rating": null,
    "products_list": "Medical shop",
    "shop_type": "Small business",
    "directions": "https://maps.app.goo.gl/yzJfcD3Y8uBvpJVg8",
    "latitude": 13.1011262,
    "longitude": 80.2248978
  },
  {
    "shop_name": "Om Sakthi Electricals & Electronics",
    "address": "No 58/43 Krishnadass Main Road Mangalapuram Jamaliya, Chennai, Tamil Nadu 600012",
    "area": "Jamaliya",
    "mobile_number": 7010018698.0,
    "website": null,
    "rating": null,
    "products_list": "Electrical supply store",
    "shop_type": "Hardawers and tools",
    "directions": "https://maps.app.goo.gl/FxGNRnJEjvH7tu1y5",
    "latitude": 13.1043952,
    "longitude": 80.2468056
  },
  {
    "shop_name": "RKY FOODS CENTER",
    "address": "11, SASTHRI NAGAR, Shanthi Nagar, Mangalapuram, Ayanavaram, Chennai, Tamil Nadu 600012",
    "area": "Aynavaram",
    "mobile_number": 8925416048.0,
    "website": null,
    "rating": null,
    "products_list": "Restaurant",
    "shop_type": "Restaurants",
    "directions": "https://maps.app.goo.gl/2EhaLM4tSnYT4gk5A",
    "latitude": 13.1041946,
    "longitude": 80.246027
  },
  {
    "shop_name": "CITY ELECTRICALS",
    "address": "15/8, CYS Rd., Shanthi Nagar, Ekangi Puram, Perambur, Chennai, Tamil Nadu 600012",
    "area": "Pulianthope",
    "mobile_number": 9840895649.0,
    "website": null,
    "rating": null,
    "products_list": "Hardware store",
    "shop_type": "Hardawers and tools",
    "directions": "https://maps.app.goo.gl/JHVPTwdpEGPLEAqf7",
    "latitude": 13.1041946,
    "longitude": 80.246027
  },
  {
    "shop_name": "Structural Solutions Private Limited",
    "address": "BLOCK 2rd, 4th A St, Ayanavaram, Chennai, Tamil Nadu",
    "area": "Aynavaram",
    "mobile_number": 8023547505.0,
    "website": null,
    "rating": null,
    "products_list": "Manufacturer",
    "shop_type": "Small business",
    "directions": "https://maps.app.goo.gl/VJTVGkktbUxzroVR8",
    "latitude": 13.104182,
    "longitude": 80.2446627
  },
  {
    "shop_name": "AGS Pipes",
    "address": "11, Main St, Rajiv Gandhi Nagar, Ekangi Puram, Ayanavaram, Chennai, Tamil Nadu 600023",
    "area": "Aynavaram",
    "mobile_number": 9150003131.0,
    "website": null,
    "rating": null,
    "products_list": "Manufacturer",
    "shop_type": "Small business",
    "directions": "https://maps.app.goo.gl/CssCX97e7acnd4wt5",
    "latitude": 13.1052511,
    "longitude": 80.2391228
  },
  {
    "shop_name": "KVPJ INNOVATIVE FLARE",
    "address": "Railway Station, No.38/28, 1st Floor, Thiruvengadam St, opposite to perambur, Perambur, Chennai, Tamil Nadu 600011",
    "area": "Jamaliya",
    "mobile_number": 9962063011.0,
    "website": null,
    "rating": null,
    "products_list": "Manufacturer",
    "shop_type": "Small business",
    "directions": "https://maps.app.goo.gl/hquqKPLRLgkVtu1DA",
    "latitude": 13.1090594,
    "longitude": 80.240669
  },
  {
    "shop_name": "FB Cakes Perambur",
    "address": "467V+9FJ, Chinnaiyan Colony, Perambur, Chennai, Tamil Nadu 600011",
    "area": "Jamaliya",
    "mobile_number": 8939992232.0,
    "website": null,
    "rating": null,
    "products_list": "Cake shop",
    "shop_type": "Small business",
    "directions": "https://maps.app.goo.gl/2wZGSWVXi6Go5kBj9",
    "latitude": 13.1130909,
    "longitude": 80.238872
  },
  {
    "shop_name": "M.K.T. Mahal",
    "address": "110, Strahans Rd, Otteri, Jamalia, Chennai, Tamil Nadu 600012",
    "area": "Jamaliya",
    "mobile_number": 9840092886.0,
    "website": null,
    "rating": null,
    "products_list": "Wedding venue",
    "shop_type": "Small business",
    "directions": "https://maps.app.goo.gl/WJWoXL1SR2Ka7hoYA",
    "latitude": 13.0979593,
    "longitude": 80.2475923
  },
  {
    "shop_name": "ROYAL SHOES",
    "address": "1/9, Perambur High Rd, Shanthi Nagar, Jamalia Nagar, Jamalia, Chennai, Tamil Nadu 600012",
    "area": "Jamaliya",
    "mobile_number": 8124735230.0,
    "website": null,
    "rating": null,
    "products_list": "Shoe store",
    "shop_type": "Small business",
    "directions": "https://maps.app.goo.gl/23d463fwZ5hi8gVA8",
    "latitude": 13.1052835,
    "longitude": 80.2523508
  },
  {
    "shop_name": "LiveOn10",
    "address": "11, Perambur High Rd, Shanthi Nagar, Jamalia Nagar, Perambur, Chennai, Tamil Nadu 600012",
    "area": "Jamaliya",
    "mobile_number": 9363636683.0,
    "website": null,
    "rating": null,
    "products_list": "Clothing store",
    "shop_type": "Small business",
    "directions": "https://maps.app.goo.gl/LUuB429Swajb9oWk9",
    "latitude": 13.1052955,
    "longitude": 80.2514429
  },
  {
    "shop_name": "White rose laundry",
    "address": "55/52, New Tank Bund Rd, New Vazhaima Nagar, Pananthope Colony, Ayanavaram, Chennai, Tamil Nadu 600012",
    "area": "Aynavaram",
    "mobile_number": 9789027836.0,
    "website": null,
    "rating": null,
    "products_list": "Laundry service",
    "shop_type": "Small business",
    "directions": "https://maps.app.goo.gl/kopYxACMWdwP5ddA6",
    "latitude": 13.102932,
    "longitude": 80.2483386
  }
]
